[
  {
    "name": "上州屋 御徒町店",
    "lat": 35.7097, "lng": 139.7744,
    "address": "東京都台東区上野5-8-8",
    "tel": "03-3836-4958",
    "hours": "10:00-19:30（月曜定休）",
    "hp": "https://www.jozuya.co.jp/",
    "types": ["釣具店"]
  },
  {
    "name": "上州屋 新宿西口店",
    "lat": 35.6908, "lng": 139.6987,
    "address": "東京都新宿区西新宿1-12-8",
    "tel": "03-3342-7200",
    "hours": "10:00-20:00（火曜定休）",
    "hp": "https://www.jozuya.co.jp/",
    "types": ["釣具店"]
  },
  {
    "name": "上州屋 葛飾店",
    "lat": 35.7472, "lng": 139.8489,
    "address": "東京都葛飾区",
    "tel": "",
    "hours": "10:00-20:00",
    "hp": "https://www.jozuya.co.jp/",
    "types": ["釣具店"]
  },
  {
    "name": "上州屋 立川北口店",
    "lat": 35.6986, "lng": 139.4143,
    "address": "東京都立川市曙町2丁目",
    "tel": "042-527-3161",
    "hours": "10:00-21:00",
    "hp": "https://www.jozuya.co.jp/",
    "types": ["釣具店"]
  },
  {
    "name": "上州屋 横浜西口店",
    "lat": 35.4659, "lng": 139.6201,
    "address": "神奈川県横浜市西区南幸2丁目",
    "tel": "045-313-6533",
    "hours": "10:00-19:30（火曜定休）",
    "hp": "https://www.jozuya.co.jp/",
    "types": ["釣具店"]
  },
  {
    "name": "上州屋 宮原本店",
    "lat": 35.9415, "lng": 139.6259,
    "address": "埼玉県さいたま市北区宮原町",
    "tel": "048-663-1515",
    "hours": "10:00-20:00（火曜定休）",
    "hp": "https://www.jozuya.co.jp/",
    "types": ["釣具店"]
  },
  {
    "name": "上州屋 千葉千城台店",
    "lat": 35.6588, "lng": 140.1069,
    "address": "千葉県千葉市若葉区千城台",
    "tel": "",
    "hours": "10:00-20:00",
    "hp": "https://www.jozuya.co.jp/",
    "types": ["釣具店"]
  },
  {
    "name": "キャスティング 錦糸町店",
    "lat": 35.6963, "lng": 139.8151,
    "address": "東京都墨田区錦糸3-2-1 アルカキット錦糸町6F",
    "tel": "03-5608-7800",
    "hours": "10:00-21:00",
    "hp": "https://www.casting.co.jp/shop/kinshicho.html",
    "types": ["釣具店"]
  },
  {
    "name": "キャスティング 津田沼店",
    "lat": 35.6779, "lng": 139.9875,
    "address": "千葉県習志野市津田沼1-6-1 ペリエ津田沼",
    "tel": "047-475-1800",
    "hours": "10:00-21:00",
    "hp": "https://www.casting.co.jp/shop/tsudanuma.html",
    "types": ["釣具店"]
  },
  {
    "name": "キャスティング 相模大野店",
    "lat": 35.5396, "lng": 139.4456,
    "address": "神奈川県相模原市南区相模大野",
    "tel": "042-745-8855",
    "hours": "10:00-21:00",
    "hp": "https://www.casting.co.jp/",
    "types": ["釣具店"]
  },
  {
    "name": "キャスティング 新習志野店",
    "lat": 35.6654, "lng": 140.0198,
    "address": "千葉県習志野市芝園1丁目",
    "tel": "047-455-1800",
    "hours": "10:00-21:00",
    "hp": "https://www.casting.co.jp/",
    "types": ["釣具店"]
  },
  {
    "name": "タックルベリー 東京足立店",
    "lat": 35.7820, "lng": 139.7950,
    "address": "東京都足立区保木間",
    "tel": "03-3885-8887",
    "hours": "10:00-20:00",
    "hp": "https://tackleberry.co.jp/",
    "types": ["釣具店", "中古"]
  },
  {
    "name": "タックルベリー 松戸店",
    "lat": 35.7882, "lng": 139.9023,
    "address": "千葉県松戸市",
    "tel": "047-363-8787",
    "hours": "10:00-20:00",
    "hp": "https://tackleberry.co.jp/",
    "types": ["釣具店", "中古"]
  },
  {
    "name": "タックルベリー 入間インター店",
    "lat": 35.8289, "lng": 139.3834,
    "address": "埼玉県入間市",
    "tel": "04-2964-4080",
    "hours": "10:00-20:00",
    "hp": "https://tackleberry.co.jp/",
    "types": ["釣具店", "中古"]
  },
  {
    "name": "フィッシングポイント 本羽田店",
    "lat": 35.5482, "lng": 139.7451,
    "address": "東京都大田区本羽田",
    "tel": "03-3741-0050",
    "hours": "9:00-19:00",
    "hp": "https://www.fp-japan.com/",
    "types": ["釣具店"]
  },
  {
    "name": "フィッシングポイント 横浜本牧店",
    "lat": 35.4283, "lng": 139.6506,
    "address": "神奈川県横浜市中区本牧",
    "tel": "045-622-6110",
    "hours": "9:00-19:00",
    "hp": "https://www.fp-japan.com/",
    "types": ["釣具店"]
  },
  {
    "name": "釣具のポイント 大宮店",
    "lat": 35.9064, "lng": 139.6218,
    "address": "埼玉県さいたま市大宮区",
    "tel": "",
    "hours": "10:00-20:00",
    "hp": "https://www.point-i.jp/",
    "types": ["釣具店"]
  },
  {
    "name": "釣具のポイント 取手店",
    "lat": 35.9098, "lng": 140.0451,
    "address": "茨城県取手市",
    "tel": "",
    "hours": "10:00-20:00",
    "hp": "https://www.point-i.jp/",
    "types": ["釣具店"]
  }
]
